gnss_cnav	2023-06-13T16:25:06.3263Z	$GPGGA,162506.00,6429.634373,N,16526.305642,W,2,18,0.6,37.881,M,0.000,M,698.0,0336*51
gnss_cnav	2023-06-13T17:25:10.3206Z	$GPGGA,172510.00,6429.634841,N,16526.305730,W,2,09,1.0,38.349,M,0.000,M,5.0,0403*5D
gnss_cnav	2023-06-13T18:25:10.3232Z	$GPGGA,182510.00,6429.634457,N,16526.305389,W,2,16,0.6,38.072,M,0.000,M,6.0,0336*5F
gnss_cnav	2023-06-13T19:25:10.3223Z	$GPGGA,192510.00,6429.634558,N,16526.305602,W,2,19,0.6,38.009,M,0.000,M,6.0,0336*55
gnss_cnav	2023-06-13T20:25:16.3224Z	$GPGGA,202516.00,6429.634722,N,16526.306399,W,2,16,0.8,38.273,M,0.000,M,7.0,0436*5A
gnss_cnav	2023-06-13T21:25:20.3287Z	$GPGGA,212520.00,6429.634811,N,16526.306348,W,2,19,0.6,38.218,M,0.000,M,451.0,0436*56
gnss_cnav	2023-06-13T22:25:22.3268Z	$GPGGA,222522.00,6429.634739,N,16526.306008,W,2,20,0.6,38.333,M,0.000,M,18.0,0436*6E
gnss_cnav	2023-06-13T23:25:23.3237Z	$GPGGA,232523.00,6429.634673,N,16526.306993,W,2,19,0.6,38.326,M,0.000,M,5.0,0436*58
gnss_cnav	2023-06-14T00:25:24.3257Z	$GPGGA,002524.00,6429.635094,N,16526.305502,W,2,18,0.6,38.278,M,0.000,M,5.0,0336*5B
gnss_cnav	2023-06-14T01:25:27.3321Z	$GPGGA,012527.00,6429.635130,N,16526.305359,W,2,17,0.7,38.229,M,0.000,M,4.0,0336*55
gnss_cnav	2023-06-14T02:25:27.3239Z	$GPGGA,022527.00,6429.635321,N,16526.305462,W,2,19,0.6,38.085,M,0.000,M,8.0,0436*5B
gnss_cnav	2023-06-14T03:25:29.3269Z	$GPGGA,032529.00,6427.496249,N,16528.592301,W,2,18,0.8,37.965,M,0.000,M,6.0,0336*54
gnss_cnav	2023-06-14T04:25:29.3256Z	$GPGGA,042529.00,6425.360877,N,16530.997319,W,2,19,0.6,38.021,M,0.000,M,5.0,0336*5B
gnss_cnav	2023-06-14T05:25:29.3250Z	$GPGGA,052529.00,6423.185747,N,16533.018289,W,2,16,0.8,37.480,M,0.000,M,5.0,0336*5D
gnss_cnav	2023-06-14T06:25:32.3267Z	$GPGGA,062532.00,6421.451906,N,16535.403697,W,2,18,0.6,37.898,M,0.000,M,19.0,0336*6A
gnss_cnav	2023-06-14T07:25:39.3288Z	$GPGGA,072539.00,6420.004203,N,16537.428307,W,2,18,0.6,37.879,M,0.000,M,6.0,0336*5D
gnss_cnav	2023-06-14T08:25:41.3245Z	$GPGGA,082541.00,6419.342070,N,16541.014604,W,2,16,0.8,38.048,M,0.000,M,7.0,0336*58
gnss_cnav	2023-06-14T09:25:42.3225Z	$GPGGA,092542.00,6420.700119,N,16539.337995,W,2,18,0.6,38.334,M,0.000,M,4.0,0336*5D
gnss_cnav	2023-06-14T10:25:42.3227Z	$GPGGA,102542.00,6422.142582,N,16536.485537,W,2,18,0.6,38.420,M,0.000,M,8.0,0336*5A
gnss_cnav	2023-06-14T11:25:42.3221Z	$GPGGA,112542.00,6423.781945,N,16533.658328,W,2,18,0.6,38.088,M,0.000,M,8.0,0336*5D
gnss_cnav	2023-06-14T12:25:44.3245Z	$GPGGA,122544.00,6425.305069,N,16531.417835,W,2,17,0.6,37.851,M,0.000,M,541.0,0336*59
gnss_cnav	2023-06-14T13:25:46.3246Z	$GPGGA,132546.00,6426.319052,N,16529.873638,W,2,18,0.6,39.838,M,0.000,M,777.0,0336*51
gnss_cnav	2023-06-14T14:25:48.3256Z	$GPGGA,142548.00,6427.006145,N,16529.476836,W,2,10,0.9,37.299,M,0.000,M,2.0,0403*56
gnss_cnav	2023-06-14T15:37:14.3247Z	$GPGGA,153714.00,6427.376577,N,16529.788529,W,2,09,1.1,43.980,M,0.000,M,905.0,0436*54
gnss_cnav	2023-06-14T16:37:15.3228Z	$GPGGA,163715.00,6426.903310,N,16530.297653,W,2,11,0.7,37.452,M,0.000,M,4.0,0403*54
gnss_cnav	2023-06-14T17:37:16.3217Z	$GPGGA,173716.00,6426.570149,N,16531.003419,W,2,10,0.9,37.709,M,0.000,M,5.0,0303*56
gnss_cnav	2023-06-14T18:37:17.3214Z	$GPGGA,183717.00,6426.382477,N,16531.806508,W,2,11,0.9,37.984,M,0.000,M,2.0,0303*5A
gnss_cnav	2023-06-14T19:37:18.3222Z	$GPGGA,193718.00,6426.094056,N,16532.477041,W,2,12,0.7,38.423,M,0.000,M,2.0,0403*53
gnss_cnav	2023-06-14T20:37:22.3284Z	$GPGGA,203722.00,6425.780577,N,16534.681887,W,2,18,0.6,38.312,M,0.000,M,323.0,0436*50
gnss_cnav	2023-06-14T21:37:25.3264Z	$GPGGA,213725.00,6425.529400,N,16537.136998,W,2,18,0.6,38.643,M,0.000,M,12.0,0336*66
gnss_cnav	2023-06-14T22:37:26.3229Z	$GPGGA,223726.00,6429.007980,N,16527.326915,W,2,18,0.6,38.463,M,0.000,M,8.0,0336*5A
gnss_cnav	2023-06-14T23:37:30.3260Z	$GPGGA,233730.00,6429.249634,N,16526.697929,W,2,20,0.6,38.005,M,0.000,M,66.0,0436*65
gnss_cnav	2023-06-15T00:37:32.3249Z	$GPGGA,003732.00,6428.480017,N,16527.961170,W,2,17,0.6,37.645,M,0.000,M,8.0,0436*51
gnss_cnav	2023-06-15T01:37:35.3277Z	$GPGGA,013735.00,6428.587409,N,16527.552578,W,2,19,0.6,38.209,M,0.000,M,6.0,0336*5E
gnss_cnav	2023-06-15T02:37:38.3250Z	$GPGGA,023738.00,6429.135674,N,16526.940089,W,2,18,0.7,38.235,M,0.000,M,10.0,0336*69
gnss_cnav	2023-06-15T03:37:39.3244Z	$GPGGA,033739.00,6429.751068,N,16526.221053,W,2,19,0.6,38.205,M,0.000,M,5.0,0336*5A
gnss_cnav	2023-06-15T04:37:39.3252Z	$GPGGA,043739.00,6429.757625,N,16526.231617,W,2,18,0.6,38.009,M,0.000,M,5.0,0336*5C
gnss_cnav	2023-06-15T05:37:40.3242Z	$GPGGA,053740.00,6429.757733,N,16526.232317,W,2,16,0.7,37.977,M,0.000,M,6.0,0336*50
gnss_cnav	2023-06-15T06:37:40.3252Z	$GPGGA,063740.00,6429.757823,N,16526.231725,W,2,17,0.6,37.969,M,0.000,M,6.0,0336*54
gnss_cnav	2023-06-15T07:37:40.3236Z	$GPGGA,073740.00,6429.757629,N,16526.232348,W,2,18,0.6,37.938,M,0.000,M,6.0,0336*56
gnss_cnav	2023-06-15T08:37:45.3218Z	$GPGGA,083745.00,6429.757800,N,16526.232312,W,2,19,0.6,37.986,M,0.000,M,6.0,0336*52
gnss_cnav	2023-06-15T09:37:45.3253Z	$GPGGA,093745.00,6429.757837,N,16526.232344,W,2,19,0.6,38.018,M,0.000,M,6.0,0336*55
gnss_cnav	2023-06-15T10:37:46.3240Z	$GPGGA,103746.00,6429.757881,N,16526.232358,W,2,18,0.7,38.040,M,0.000,M,7.0,0336*52
gnss_cnav	2023-06-15T11:37:49.3241Z	$GPGGA,113749.00,6429.757834,N,16526.232335,W,2,17,0.6,38.048,M,0.000,M,5.0,0436*5A
gnss_cnav	2023-06-15T12:37:51.3256Z	$GPGGA,123751.00,6429.757710,N,16526.232386,W,2,20,0.6,38.019,M,0.000,M,7.0,0436*53
gnss_cnav	2023-06-15T13:37:55.3261Z	$GPGGA,133755.00,6429.757648,N,16526.231981,W,2,19,0.6,37.744,M,0.000,M,326.0,0336*59
gnss_cnav	2023-06-15T14:37:56.3265Z	$GPGGA,143756.00,6429.757800,N,16526.232032,W,2,16,0.7,38.216,M,0.000,M,452.0,0436*5D
gnss_cnav	2023-06-15T15:37:59.3271Z	$GPGGA,153759.00,6429.757769,N,16526.231987,W,2,17,0.6,37.807,M,0.000,M,461.0,0436*52
gnss_cnav	2023-06-15T16:38:01.3232Z	$GPGGA,163801.00,6429.757700,N,16526.231583,W,2,18,0.6,37.856,M,0.000,M,7.0,0336*5C
gnss_cnav	2023-06-15T17:38:04.3226Z	$GPGGA,173804.00,6429.757863,N,16526.232634,W,2,10,1.0,37.420,M,0.000,M,5.0,0303*58
gnss_cnav	2023-06-15T18:38:06.3323Z	$GPGGA,183806.00,6429.757859,N,16526.232231,W,2,21,0.6,37.695,M,0.000,M,497.0,0336*5D
gnss_cnav	2023-06-15T19:38:09.3278Z	$GPGGA,193809.00,6429.757869,N,16526.232585,W,2,19,0.6,37.940,M,0.000,M,585.0,0336*56
gnss_cnav	2023-06-15T20:38:13.3224Z	$GPGGA,203813.00,6429.757840,N,16526.232202,W,2,17,0.6,38.070,M,0.000,M,4.0,0336*53
gnss_cnav	2023-06-15T21:38:16.3259Z	$GPGGA,213816.00,6429.757763,N,16526.232098,W,2,18,0.6,38.299,M,0.000,M,138.0,0436*5B
gnss_cnav	2023-06-15T22:38:20.3262Z	$GPGGA,223820.00,6429.757557,N,16526.232149,W,2,17,0.7,38.028,M,0.000,M,101.0,0436*59
gnss_cnav	2023-06-15T23:38:21.3301Z	$GPGGA,233821.00,6429.757514,N,16526.231936,W,2,20,0.6,38.133,M,0.000,M,158.0,0336*58
gnss_cnav	2023-06-16T00:38:21.3229Z	$GPGGA,003821.00,6429.757866,N,16526.232113,W,2,17,0.7,38.126,M,0.000,M,7.0,0436*50
gnss_cnav	2023-06-16T01:38:22.3245Z	$GPGGA,013822.00,6429.757875,N,16526.231943,W,2,18,0.6,38.002,M,0.000,M,4.0,0336*53
gnss_cnav	2023-06-16T02:38:22.3263Z	$GPGGA,023822.00,6429.757675,N,16526.231632,W,2,15,0.8,37.864,M,0.000,M,8.0,0336*5F
gnss_cnav	2023-06-16T03:38:24.3253Z	$GPGGA,033824.00,6429.757320,N,16526.231533,W,2,19,0.6,37.806,M,0.000,M,5.0,0336*54
gnss_cnav	2023-06-16T04:38:25.3271Z	$GPGGA,043825.00,6429.757252,N,16526.231465,W,2,19,0.6,37.713,M,0.000,M,6.0,0336*5C
gnss_cnav	2023-06-16T05:38:25.3230Z	$GPGGA,053825.00,6429.757227,N,16526.231440,W,2,17,0.7,37.633,M,0.000,M,6.0,0336*54
gnss_cnav	2023-06-16T06:38:30.3234Z	$GPGGA,063830.00,6429.757243,N,16526.231611,W,2,18,0.6,37.605,M,0.000,M,6.0,0336*5C
gnss_cnav	2023-06-16T07:38:33.3208Z	$GPGGA,073833.00,6429.757248,N,16526.231653,W,2,19,0.6,37.617,M,0.000,M,4.0,0336*53
gnss_cnav	2023-06-16T08:38:33.3246Z	$GPGGA,083833.00,6429.757212,N,16526.231691,W,2,16,0.7,37.660,M,0.000,M,4.0,0336*53
gnss_cnav	2023-06-16T09:38:36.3291Z	$GPGGA,093836.00,6429.757256,N,16526.231692,W,2,18,0.6,37.700,M,0.000,M,7.0,0336*5F
gnss_cnav	2023-06-16T10:38:36.3299Z	$GPGGA,103836.00,6429.757228,N,16526.231520,W,2,19,0.6,37.749,M,0.000,M,183.0,0436*52
gnss_cnav	2023-06-16T11:38:37.3248Z	$GPGGA,113837.00,6429.757416,N,16526.231719,W,2,18,0.6,37.736,M,0.000,M,8.0,0436*5A
gnss_cnav	2023-06-16T12:38:39.3240Z	$GPGGA,123839.00,6429.757102,N,16526.232042,W,2,20,0.6,37.807,M,0.000,M,5.0,0336*51
gnss_cnav	2023-06-16T13:38:44.3243Z	$GPGGA,133844.00,6429.757211,N,16526.231788,W,2,18,0.6,38.017,M,0.000,M,5.0,0436*53
gnss_cnav	2023-06-16T14:38:46.3219Z	$GPGGA,143846.00,6429.757442,N,16526.231829,W,2,15,0.7,38.142,M,0.000,M,7.0,0436*5D
gnss_cnav	2023-06-16T15:38:50.3252Z	$GPGGA,153850.00,6429.757138,N,16526.231624,W,2,17,0.6,37.872,M,0.000,M,836.0,0436*5C
gnss_cnav	2023-06-16T16:38:50.3322Z	$GPGGA,163850.00,6429.757212,N,16526.231292,W,2,19,0.6,37.994,M,0.000,M,442.0,0336*52
gnss_cnav	2023-06-16T17:38:51.3218Z	$GPGGA,173851.00,6429.757151,N,16526.232125,W,2,10,1.0,37.876,M,0.000,M,4.0,0303*59
gnss_cnav	2023-06-16T18:38:52.3298Z	$GPGGA,183852.00,6426.643854,N,16536.376563,W,2,20,0.6,37.933,M,0.000,M,4.0,0436*51
gnss_cnav	2023-06-16T19:38:55.3281Z	$GPGGA,193855.00,6426.122682,N,16547.705596,W,2,20,0.6,37.614,M,0.000,M,521.0,0436*56
gnss_cnav	2023-06-16T20:39:01.3283Z	$GPGGA,203901.00,6425.171587,N,16609.744126,W,2,18,0.6,37.285,M,0.000,M,458.0,0436*54
gnss_cnav	2023-06-16T21:39:03.3337Z	$GPGGA,213903.00,6429.842540,N,16628.133519,W,2,20,0.6,37.442,M,0.000,M,254.0,0336*5F
gnss_cnav	2023-06-16T22:39:06.3296Z	$GPGGA,223906.00,6436.800166,N,16643.912938,W,2,19,0.6,37.107,M,0.000,M,207.0,0336*50
gnss_cnav	2023-06-16T23:39:06.3331Z	$GPGGA,233906.00,6443.480149,N,16700.961374,W,2,18,0.8,36.792,M,0.000,M,7.0,0336*5C
gnss_cnav	2023-06-17T00:39:07.3273Z	$GPGGA,003907.00,6450.065046,N,16718.369261,W,2,17,0.6,36.451,M,0.000,M,9.0,0336*52
gnss_cnav	2023-06-17T01:39:09.3269Z	$GPGGA,013909.00,6457.689983,N,16734.365448,W,2,17,0.6,36.175,M,0.000,M,5.0,0336*5E
gnss_cnav	2023-06-17T02:39:11.3265Z	$GPGGA,023911.00,6506.982155,N,16746.780252,W,2,16,0.7,35.778,M,0.000,M,7.0,0336*5B
gnss_cnav	2023-06-17T03:39:11.3357Z	$GPGGA,033911.00,6516.136072,N,16759.311739,W,2,20,0.6,35.296,M,0.000,M,7.0,0336*53
gnss_cnav	2023-06-17T04:39:12.3206Z	$GPGGA,043912.00,6525.152441,N,16810.665917,W,2,18,0.6,35.111,M,0.000,M,4.0,0336*53
gnss_cnav	2023-06-17T05:39:13.3228Z	$GPGGA,053913.00,6529.488419,N,16810.606267,W,2,18,0.6,35.344,M,0.000,M,4.0,0336*5B
gnss_cnav	2023-06-17T06:39:13.3266Z	$GPGGA,063913.00,6533.939921,N,16811.889131,W,2,17,0.6,35.439,M,0.000,M,9.0,0436*52
gnss_cnav	2023-06-17T07:39:15.3213Z	$GPGGA,073915.00,6537.148005,N,16809.012621,W,2,19,0.6,35.393,M,0.000,M,6.0,0336*54
gnss_cnav	2023-06-17T08:39:18.3286Z	$GPGGA,083918.00,6538.754799,N,16815.659920,W,2,18,0.6,35.209,M,0.000,M,4.0,0336*5B
gnss_cnav	2023-06-17T09:39:23.3241Z	$GPGGA,093923.00,6540.094139,N,16821.379571,W,2,20,0.6,35.068,M,0.000,M,5.0,0336*5D
gnss_cnav	2023-06-17T10:39:25.3311Z	$GPGGA,103925.00,6541.461310,N,16826.605418,W,2,20,0.6,34.894,M,0.000,M,6.0,0436*5C
gnss_cnav	2023-06-17T11:39:26.3271Z	$GPGGA,113926.00,6542.674432,N,16831.986752,W,2,17,0.6,34.781,M,0.000,M,7.0,0436*5D
gnss_cnav	2023-06-17T12:39:27.3272Z	$GPGGA,123927.00,6544.177963,N,16837.778713,W,2,17,0.6,34.695,M,0.000,M,4.0,0436*5F
gnss_cnav	2023-06-17T13:39:34.3239Z	$GPGGA,133934.00,6545.285404,N,16841.544157,W,2,18,0.6,34.641,M,0.000,M,5.0,0336*55
gnss_cnav	2023-06-17T14:39:36.3233Z	$GPGGA,143936.00,6545.884736,N,16844.496489,W,2,16,0.7,34.625,M,0.000,M,7.0,0336*5B
gnss_cnav	2023-06-17T15:39:37.3310Z	$GPGGA,153937.00,6546.834634,N,16844.366465,W,2,18,0.6,34.622,M,0.000,M,208.0,0436*58
gnss_cnav	2023-06-17T16:39:39.3255Z	$GPGGA,163939.00,6547.246124,N,16849.868559,W,2,17,0.6,34.649,M,0.000,M,5.0,0436*56
gnss_cnav	2023-06-17T17:39:40.3276Z	$GPGGA,173940.00,6557.317349,N,16839.420347,W,2,17,0.7,34.557,M,0.000,M,6.0,0436*54
gnss_cnav	2023-06-17T18:39:44.3247Z	$GPGGA,183944.00,6608.339738,N,16830.658353,W,2,20,0.6,34.249,M,0.000,M,281.0,0336*5E
gnss_cnav	2023-06-17T19:39:49.3329Z	$GPGGA,193949.00,6619.587635,N,16830.252977,W,2,20,0.6,34.116,M,0.000,M,5.0,0336*58
gnss_cnav	2023-06-17T20:39:50.3267Z	$GPGGA,203950.00,6630.418737,N,16824.302227,W,2,17,0.6,33.918,M,0.000,M,6.0,0436*5B
gnss_cnav	2023-06-17T21:39:51.3283Z	$GPGGA,213951.00,6641.638656,N,16819.791213,W,2,20,0.6,33.598,M,0.000,M,7.0,0436*5D
gnss_cnav	2023-06-17T22:39:55.3273Z	$GPGGA,223955.00,6652.057984,N,16812.922474,W,2,17,0.7,33.221,M,0.000,M,6.0,0336*5B
gnss_cnav	2023-06-17T23:39:57.3248Z	$GPGGA,233957.00,6702.413454,N,16806.386940,W,2,18,0.6,32.810,M,0.000,M,74.0,0336*61
gnss_cnav	2023-06-18T00:39:57.3249Z	$GPGGA,003957.00,6712.771747,N,16801.085983,W,2,16,0.6,32.281,M,0.000,M,4.0,0336*54
gnss_cnav	2023-06-18T01:39:59.3230Z	$GPGGA,013959.00,6723.207453,N,16755.543500,W,2,18,0.6,31.688,M,0.000,M,5.0,0336*5C
gnss_cnav	2023-06-18T02:40:01.3246Z	$GPGGA,024001.00,6733.528116,N,16750.159036,W,2,16,0.8,31.478,M,0.000,M,12.0,0336*62
gnss_cnav	2023-06-18T03:40:04.3277Z	$GPGGA,034004.00,6743.787932,N,16744.853301,W,2,20,0.6,31.317,M,0.000,M,5.0,0336*5A
gnss_cnav	2023-06-18T04:40:05.3337Z	$GPGGA,044005.00,6754.128988,N,16740.149100,W,2,19,0.6,31.223,M,0.000,M,16.0,0336*63
gnss_cnav	2023-06-18T05:40:07.3302Z	$GPGGA,054007.00,6804.637242,N,16735.533818,W,2,18,0.6,31.524,M,0.000,M,4.0,0336*57
gnss_cnav	2023-06-18T06:40:08.3249Z	$GPGGA,064008.00,6815.119248,N,16729.937067,W,2,18,0.6,31.739,M,0.000,M,4.0,0336*51
gnss_cnav	2023-06-18T07:40:13.3300Z	$GPGGA,074013.00,6825.335731,N,16722.785994,W,2,19,0.6,31.702,M,0.000,M,4.0,0336*5E
gnss_cnav	2023-06-18T08:40:13.3278Z	$GPGGA,084013.00,6835.424309,N,16726.378408,W,2,18,0.6,31.747,M,0.000,M,4.0,0336*52
gnss_cnav	2023-06-18T09:40:15.3234Z	$GPGGA,094015.00,6840.654848,N,16724.588411,W,2,19,0.6,32.016,M,0.000,M,6.0,0336*5C
gnss_cnav	2023-06-18T10:40:15.3282Z	$GPGGA,104015.00,6845.912624,N,16719.422517,W,2,18,0.6,32.038,M,0.000,M,67.0,0336*6A
gnss_cnav	2023-06-18T11:40:19.3239Z	$GPGGA,114019.00,6848.846260,N,16720.005912,W,2,16,0.7,32.120,M,0.000,M,5.0,0336*5F
gnss_cnav	2023-06-18T12:40:21.3261Z	$GPGGA,124021.00,6850.845188,N,16720.310339,W,2,18,0.6,32.094,M,0.000,M,23.0,0336*69
gnss_cnav	2023-06-18T13:40:24.3251Z	$GPGGA,134024.00,6853.448389,N,16721.315604,W,2,20,0.6,32.077,M,0.000,M,5.0,0436*56
gnss_cnav	2023-06-18T14:40:25.3252Z	$GPGGA,144025.00,6854.499277,N,16726.053965,W,2,17,0.6,31.956,M,0.000,M,6.0,0436*5B
gnss_cnav	2023-06-18T15:40:25.3274Z	$GPGGA,154025.00,6857.865593,N,16726.180732,W,2,17,0.6,32.160,M,0.000,M,111.0,0436*51
gnss_cnav	2023-06-18T16:40:28.3239Z	$GPGGA,164028.00,6903.392191,N,16716.866219,W,2,17,0.6,32.087,M,0.000,M,4.0,0336*5E
gnss_cnav	2023-06-18T17:40:31.3295Z	$GPGGA,174031.00,6906.539950,N,16708.127630,W,2,16,0.6,31.355,M,0.000,M,753.0,0436*50
gnss_cnav	2023-06-18T18:40:33.3245Z	$GPGGA,184033.00,6907.575225,N,16656.858732,W,2,20,0.6,31.998,M,0.000,M,99.0,0436*6A
gnss_cnav	2023-06-18T19:40:37.3240Z	$GPGGA,194037.00,6910.509988,N,16651.486924,W,2,19,0.6,32.117,M,0.000,M,109.0,0436*51
gnss_cnav	2023-06-18T20:40:37.3244Z	$GPGGA,204037.00,6914.023497,N,16651.062272,W,2,17,0.6,32.033,M,0.000,M,4.0,0436*52
gnss_cnav	2023-06-18T21:40:39.3231Z	$GPGGA,214039.00,6917.698635,N,16649.011133,W,2,18,0.6,32.060,M,0.000,M,5.0,0436*51
gnss_cnav	2023-06-18T22:40:45.3211Z	$GPGGA,224045.00,6921.088026,N,16645.120951,W,2,18,0.6,32.003,M,0.000,M,6.0,0436*5A
gnss_cnav	2023-06-18T23:40:46.3233Z	$GPGGA,234046.00,6925.122463,N,16643.769787,W,2,18,0.6,31.927,M,0.000,M,7.0,0436*5D
gnss_cnav	2023-06-19T00:40:46.3264Z	$GPGGA,004046.00,6931.611663,N,16644.355712,W,2,17,0.6,32.030,M,0.000,M,7.0,0436*5F
gnss_cnav	2023-06-19T01:40:49.3240Z	$GPGGA,014049.00,6939.605651,N,16644.221960,W,2,18,0.6,32.061,M,0.000,M,5.0,0436*5D
gnss_cnav	2023-06-19T02:40:50.3251Z	$GPGGA,024050.00,6947.084586,N,16625.252914,W,2,17,0.7,31.802,M,0.000,M,6.0,0436*5A
gnss_cnav	2023-06-19T03:40:50.3284Z	$GPGGA,034050.00,6957.184494,N,16613.436169,W,2,19,0.6,31.630,M,0.000,M,632.0,0436*5B
gnss_cnav	2023-06-19T04:40:51.3243Z	$GPGGA,044051.00,7003.517845,N,16602.106925,W,2,20,0.6,31.649,M,0.000,M,7.0,0436*58
gnss_cnav	2023-06-19T05:40:52.3257Z	$GPGGA,054052.00,7005.397698,N,16550.663088,W,2,20,0.6,31.518,M,0.000,M,339.0,0436*5B
gnss_cnav	2023-06-19T06:40:57.3245Z	$GPGGA,064057.00,7009.746326,N,16535.229988,W,2,19,0.6,31.293,M,0.000,M,4.0,0436*5A
gnss_cnav	2023-06-19T07:40:58.3217Z	$GPGGA,074058.00,7012.627068,N,16519.692580,W,2,19,0.6,31.255,M,0.000,M,4.0,0436*55
gnss_cnav	2023-06-19T08:41:06.3285Z	$GPGGA,084106.00,7016.905332,N,16459.338914,W,2,17,0.6,31.080,M,0.000,M,7.0,0436*51
gnss_cnav	2023-06-19T09:41:10.3281Z	$GPGGA,094110.00,7019.278310,N,16427.217859,W,2,17,0.6,31.027,M,0.000,M,6.0,0436*58
gnss_cnav	2023-06-19T10:41:11.3260Z	$GPGGA,104111.00,7023.176426,N,16356.997034,W,2,17,0.6,30.931,M,0.000,M,18.0,0436*66
gnss_cnav	2023-06-19T11:41:15.3276Z	$GPGGA,114115.00,7024.979910,N,16324.353868,W,2,18,0.6,30.694,M,0.000,M,136.0,0436*5F
gnss_cnav	2023-06-19T12:41:15.3297Z	$GPGGA,124115.00,7021.410209,N,16257.644586,W,2,19,0.6,30.427,M,0.000,M,6.0,0436*5A
gnss_cnav	2023-06-19T13:41:17.3299Z	$GPGGA,134117.00,7025.924220,N,16227.966796,W,2,18,0.6,30.170,M,0.000,M,4.0,0436*53
gnss_cnav	2023-06-19T14:41:18.3283Z	$GPGGA,144118.00,7026.515965,N,16154.424020,W,2,17,0.6,29.853,M,0.000,M,240.0,0436*57
gnss_cnav	2023-06-19T15:41:22.3253Z	$GPGGA,154122.00,7024.418844,N,16138.905174,W,2,10,0.8,31.007,M,0.000,M,5.0,0403*5B
gnss_cnav	2023-06-19T16:41:30.3185Z	$GPGGA,164130.00,7023.624934,N,16137.351671,W,2,10,0.9,30.117,M,0.000,M,2.0,0403*56
gnss_cnav	2023-06-19T17:41:33.3240Z	$GPGGA,174133.00,7026.716929,N,16138.221763,W,2,11,0.9,30.916,M,0.000,M,4.0,0403*58
gnss_cnav	2023-06-19T18:41:34.3234Z	$GPGGA,184134.00,7027.318704,N,16137.643405,W,2,12,0.7,31.047,M,0.000,M,5.0,0403*56
gnss_cnav	2023-06-19T19:41:37.3228Z	$GPGGA,194137.00,7032.140890,N,16140.386794,W,2,17,0.8,30.209,M,0.000,M,78.0,0436*65
gnss_cnav	2023-06-19T20:41:38.3257Z	$GPGGA,204138.00,7032.405789,N,16138.028677,W,2,17,0.6,30.127,M,0.000,M,204.0,0436*5F
gnss_cnav	2023-06-19T21:41:40.3241Z	$GPGGA,214140.00,7032.355497,N,16137.327861,W,2,19,0.6,30.223,M,0.000,M,71.0,0436*6C
gnss_cnav	2023-06-19T22:41:41.3246Z	$GPGGA,224141.00,7038.199374,N,16141.404007,W,2,18,0.6,30.227,M,0.000,M,7.0,0436*57
gnss_cnav	2023-06-19T23:41:47.3230Z	$GPGGA,234147.00,7042.730664,N,16143.201984,W,2,19,0.8,30.393,M,0.000,M,4.0,0436*5D
gnss_cnav	2023-06-20T00:41:48.3215Z	$GPGGA,004148.00,7045.061693,N,16142.471814,W,2,18,0.6,30.428,M,0.000,M,269.0,0436*56
gnss_cnav	2023-06-20T01:41:50.3237Z	$GPGGA,014150.00,7047.527381,N,16142.186694,W,2,17,0.6,30.224,M,0.000,M,6.0,0436*58
gnss_cnav	2023-06-20T02:41:52.3186Z	$GPGGA,024152.00,7048.072741,N,16141.696855,W,2,09,1.1,30.208,M,0.000,M,5.0,0403*5F
gnss_cnav	2023-06-20T03:41:53.3264Z	$GPGGA,034153.00,7048.988577,N,16140.913334,W,2,19,0.6,30.276,M,0.000,M,19.0,0436*6E
gnss_cnav	2023-06-20T04:41:55.3271Z	$GPGGA,044155.00,7050.487073,N,16138.935811,W,2,21,0.6,30.180,M,0.000,M,156.0,0436*59
gnss_cnav	2023-06-20T05:41:58.3240Z	$GPGGA,054158.00,7051.565761,N,16139.015935,W,2,19,0.6,30.274,M,0.000,M,5.0,0436*54
gnss_cnav	2023-06-20T06:41:59.3250Z	$GPGGA,064159.00,7052.111515,N,16138.400982,W,2,17,0.6,30.339,M,0.000,M,5.0,0436*58
gnss_cnav	2023-06-20T07:42:01.3237Z	$GPGGA,074201.00,7052.160556,N,16137.872872,W,2,17,0.6,30.292,M,0.000,M,7.0,0436*5C
gnss_cnav	2023-06-20T08:42:03.3227Z	$GPGGA,084203.00,7052.701380,N,16136.694443,W,2,16,0.6,30.515,M,0.000,M,40.0,0436*6E
gnss_cnav	2023-06-20T09:42:08.3267Z	$GPGGA,094208.00,7053.088025,N,16135.014362,W,2,15,0.7,30.360,M,0.000,M,194.0,0436*58
gnss_cnav	2023-06-20T10:42:08.3272Z	$GPGGA,104208.00,7053.600381,N,16134.058174,W,2,17,0.6,30.377,M,0.000,M,320.0,0436*5F
gnss_cnav	2023-06-20T11:42:09.3227Z	$GPGGA,114209.00,7052.879667,N,16136.717250,W,2,19,0.6,30.443,M,0.000,M,366.0,0436*54
gnss_cnav	2023-06-20T12:42:14.3277Z	$GPGGA,124214.00,7053.281550,N,16136.610047,W,2,19,0.6,30.373,M,0.000,M,176.0,0436*55
gnss_cnav	2023-06-20T13:42:16.3322Z	$GPGGA,134216.00,7053.392818,N,16136.098600,W,2,18,0.6,30.336,M,0.000,M,17.0,0436*61
gnss_cnav	2023-06-20T14:42:16.3233Z	$GPGGA,144216.00,7053.381343,N,16134.690574,W,2,16,0.6,30.352,M,0.000,M,507.0,0436*55
gnss_cnav	2023-06-20T15:42:16.3214Z	$GPGGA,154216.00,7053.346534,N,16133.251813,W,2,10,0.8,30.854,M,0.000,M,5.0,0403*5F
gnss_cnav	2023-06-20T16:42:18.3191Z	$GPGGA,164218.00,7053.305716,N,16131.784286,W,2,10,0.9,29.872,M,0.000,M,2.0,0403*54
gnss_cnav	2023-06-20T17:42:22.3193Z	$GPGGA,174222.00,7053.384092,N,16130.488812,W,2,11,0.9,30.622,M,0.000,M,5.0,0403*52
gnss_cnav	2023-06-20T18:42:22.3196Z	$GPGGA,184222.00,7053.358167,N,16128.950007,W,2,12,0.7,30.663,M,0.000,M,5.0,0403*52
gnss_cnav	2023-06-20T19:42:22.3218Z	$GPGGA,194222.00,7053.303793,N,16127.331112,W,2,09,1.0,31.092,M,0.000,M,5.0,0403*52
gnss_cnav	2023-06-20T20:42:23.3239Z	$GPGGA,204223.00,7053.231686,N,16125.709636,W,2,16,0.7,30.438,M,0.000,M,150.0,0436*5A
gnss_cnav	2023-06-20T21:42:23.3231Z	$GPGGA,214223.00,7053.146048,N,16123.975180,W,2,20,0.6,30.505,M,0.000,M,69.0,0436*65
gnss_cnav	2023-06-20T22:42:26.3265Z	$GPGGA,224226.00,7053.043983,N,16122.157556,W,2,20,0.6,30.467,M,0.000,M,7.0,0436*52
gnss_cnav	2023-06-20T23:42:26.3239Z	$GPGGA,234226.00,7052.925072,N,16120.393806,W,2,19,0.6,30.436,M,0.000,M,7.0,0436*52
gnss_cnav	2023-06-21T00:42:28.3232Z	$GPGGA,004228.00,7053.096629,N,16119.163222,W,2,19,0.6,30.479,M,0.000,M,29.0,0436*69
gnss_cnav	2023-06-21T01:42:30.3264Z	$GPGGA,014230.00,7052.679886,N,16117.007275,W,2,19,0.6,30.414,M,0.000,M,111.0,0436*52
gnss_cnav	2023-06-21T02:42:31.3210Z	$GPGGA,024231.00,7051.307088,N,16116.221434,W,2,17,0.7,30.336,M,0.000,M,7.0,0436*53
gnss_cnav	2023-06-21T03:42:31.3256Z	$GPGGA,034231.00,7051.283298,N,16113.920477,W,2,21,0.6,30.216,M,0.000,M,317.0,0436*51
gnss_cnav	2023-06-21T04:42:34.3236Z	$GPGGA,044234.00,7051.023475,N,16111.151930,W,2,19,0.6,30.186,M,0.000,M,5.0,0436*5D
gnss_cnav	2023-06-21T05:42:37.3244Z	$GPGGA,054237.00,7050.839812,N,16108.726996,W,2,18,0.6,30.218,M,0.000,M,168.0,0436*5D
gnss_cnav	2023-06-21T06:42:43.3236Z	$GPGGA,064243.00,7050.707927,N,16106.349135,W,2,17,0.6,30.122,M,0.000,M,4.0,0436*54
gnss_cnav	2023-06-21T07:42:44.3233Z	$GPGGA,074244.00,7048.880775,N,16106.778360,W,2,17,0.6,30.089,M,0.000,M,5.0,0436*57
gnss_cnav	2023-06-21T08:42:45.3225Z	$GPGGA,084245.00,7048.371739,N,16103.020203,W,2,15,0.7,30.175,M,0.000,M,6.0,0436*5D
gnss_cnav	2023-06-21T09:42:46.3311Z	$GPGGA,094246.00,7045.763703,N,16054.065189,W,2,17,0.7,29.988,M,0.000,M,138.0,0436*53
gnss_cnav	2023-06-21T10:42:48.3260Z	$GPGGA,104248.00,7041.910891,N,16047.467544,W,2,17,0.6,29.951,M,0.000,M,239.0,0436*59
gnss_cnav	2023-06-21T11:42:49.3253Z	$GPGGA,114249.00,7035.603574,N,16103.231739,W,2,19,0.6,30.125,M,0.000,M,5.0,0436*5D
gnss_cnav	2023-06-21T12:42:49.3275Z	$GPGGA,124249.00,7034.119764,N,16116.906048,W,2,18,0.6,30.239,M,0.000,M,95.0,0436*6C
gnss_cnav	2023-06-21T13:42:49.3331Z	$GPGGA,134249.00,7034.502644,N,16140.866727,W,2,19,0.6,30.105,M,0.000,M,480.0,0436*57
gnss_cnav	2023-06-21T14:42:50.3251Z	$GPGGA,144250.00,7034.724254,N,16205.528455,W,2,16,0.6,30.237,M,0.000,M,6.0,0436*5F
gnss_cnav	2023-06-21T15:42:52.3223Z	$GPGGA,154252.00,7035.482388,N,16231.570871,W,2,10,0.8,29.275,M,0.000,M,2.0,0403*56
gnss_cnav	2023-06-21T16:42:53.3230Z	$GPGGA,164253.00,7036.075538,N,16258.015440,W,2,09,0.9,30.479,M,0.000,M,2.0,0403*5A
gnss_cnav	2023-06-21T17:42:57.3227Z	$GPGGA,174257.00,7035.721154,N,16324.535934,W,2,11,1.0,30.839,M,0.000,M,2.0,0403*5E
gnss_cnav	2023-06-21T18:42:57.3289Z	$GPGGA,184257.00,7035.025037,N,16352.154180,W,2,18,0.6,30.619,M,0.000,M,4.0,0436*51
gnss_cnav	2023-06-21T19:42:59.3281Z	$GPGGA,194259.00,7036.652327,N,16420.168018,W,2,16,0.7,30.771,M,0.000,M,396.0,0436*5C
gnss_cnav	2023-06-21T20:43:01.3305Z	$GPGGA,204301.00,7035.804495,N,16448.585170,W,2,18,0.6,30.767,M,0.000,M,372.0,0436*5E
gnss_cnav	2023-06-21T21:43:03.3298Z	$GPGGA,214303.00,7034.650209,N,16512.235579,W,2,21,0.6,30.988,M,0.000,M,360.0,0436*59
gnss_cnav	2023-06-21T22:43:06.3279Z	$GPGGA,224306.00,7038.607716,N,16523.262301,W,2,18,0.6,31.050,M,0.000,M,337.0,0436*56
gnss_cnav	2023-06-21T23:43:09.3239Z	$GPGGA,234309.00,7042.335674,N,16532.385295,W,2,19,0.6,31.171,M,0.000,M,5.0,0436*51
gnss_cnav	2023-06-22T00:43:11.3262Z	$GPGGA,004311.00,7042.227085,N,16532.147603,W,2,18,0.6,31.085,M,0.000,M,7.0,0436*5D
gnss_cnav	2023-06-22T01:43:14.3243Z	$GPGGA,014314.00,7041.878388,N,16531.852625,W,2,19,0.6,30.996,M,0.000,M,280.0,0436*58
gnss_cnav	2023-06-22T02:43:16.3212Z	$GPGGA,024316.00,7044.961635,N,16534.560496,W,2,16,0.8,30.960,M,0.000,M,7.0,0436*50
gnss_cnav	2023-06-22T03:43:19.3272Z	$GPGGA,034319.00,7048.662433,N,16526.251079,W,2,20,0.6,30.876,M,0.000,M,5.0,0436*56
gnss_cnav	2023-06-22T04:43:21.3224Z	$GPGGA,044321.00,7050.217870,N,16522.470239,W,2,17,0.6,30.876,M,0.000,M,7.0,0436*5F
gnss_cnav	2023-06-22T05:43:22.3218Z	$GPGGA,054322.00,7053.918906,N,16509.476728,W,2,18,0.6,30.902,M,0.000,M,4.0,0436*5E
gnss_cnav	2023-06-22T06:43:25.3259Z	$GPGGA,064325.00,7055.998388,N,16509.848862,W,2,18,0.6,30.995,M,0.000,M,6.0,0436*54
gnss_cnav	2023-06-22T07:43:26.3251Z	$GPGGA,074326.00,7058.889411,N,16509.964479,W,2,17,0.6,30.991,M,0.000,M,12.0,0436*6A
gnss_cnav	2023-06-22T08:43:28.3290Z	$GPGGA,084328.00,7103.689552,N,16502.028854,W,2,16,0.7,31.023,M,0.000,M,4.0,0436*53
gnss_cnav	2023-06-22T09:43:31.3243Z	$GPGGA,094331.00,7103.527591,N,16500.438303,W,2,17,0.6,31.136,M,0.000,M,7.0,0436*5A
gnss_cnav	2023-06-22T10:43:33.3261Z	$GPGGA,104333.00,7105.890363,N,16508.918756,W,2,17,0.6,31.068,M,0.000,M,4.0,0436*56
gnss_cnav	2023-06-22T11:43:37.3247Z	$GPGGA,114337.00,7107.772280,N,16459.673249,W,2,19,0.6,31.021,M,0.000,M,243.0,0436*50
gnss_cnav	2023-06-22T12:43:39.3242Z	$GPGGA,124339.00,7111.060185,N,16450.928353,W,2,19,0.6,31.074,M,0.000,M,10.0,0436*6E
gnss_cnav	2023-06-22T13:43:41.3242Z	$GPGGA,134341.00,7111.736946,N,16449.777333,W,2,20,0.6,30.977,M,0.000,M,548.0,0436*50
gnss_cnav	2023-06-22T14:43:45.3224Z	$GPGGA,144345.00,7113.257149,N,16445.665081,W,2,18,0.6,31.078,M,0.000,M,6.0,0436*53
gnss_cnav	2023-06-22T15:43:46.3321Z	$GPGGA,154346.00,7114.100261,N,16443.271221,W,2,17,0.6,30.767,M,0.000,M,1042.0,0436*67
gnss_cnav	2023-06-22T16:43:48.3215Z	$GPGGA,164348.00,7113.854810,N,16442.019690,W,2,10,0.8,30.793,M,0.000,M,5.0,0403*5C
gnss_cnav	2023-06-22T17:43:50.3256Z	$GPGGA,174350.00,7115.482300,N,16440.889691,W,2,11,0.9,30.887,M,0.000,M,2.0,0403*50
gnss_cnav	2023-06-22T18:43:53.3238Z	$GPGGA,184353.00,7117.252614,N,16439.057464,W,2,19,0.6,30.936,M,0.000,M,4.0,0436*54
gnss_cnav	2023-06-22T19:43:53.3251Z	$GPGGA,194353.00,7118.141280,N,16436.396745,W,2,20,0.6,30.940,M,0.000,M,39.0,0436*66
gnss_cnav	2023-06-22T20:43:55.3279Z	$GPGGA,204355.00,7117.786406,N,16435.786619,W,2,18,0.6,30.869,M,0.000,M,6.0,0436*53
gnss_cnav	2023-06-22T21:43:59.3234Z	$GPGGA,214359.00,7117.421607,N,16435.272993,W,2,20,0.6,30.982,M,0.000,M,5.0,0436*5C
gnss_cnav	2023-06-22T22:44:00.3268Z	$GPGGA,224400.00,7117.039908,N,16434.884506,W,2,19,0.6,31.006,M,0.000,M,6.0,0436*56
gnss_cnav	2023-06-22T23:44:03.3243Z	$GPGGA,234403.00,7116.670351,N,16434.636654,W,2,19,0.6,31.037,M,0.000,M,4.0,0436*5B
gnss_cnav	2023-06-23T00:44:05.3238Z	$GPGGA,004405.00,7116.340456,N,16434.538424,W,2,19,0.6,30.993,M,0.000,M,6.0,0436*56
gnss_cnav	2023-06-23T01:44:07.3238Z	$GPGGA,014407.00,7116.030035,N,16434.504931,W,2,17,0.8,31.016,M,0.000,M,4.0,0436*51
gnss_cnav	2023-06-23T02:44:10.3248Z	$GPGGA,024410.00,7117.916064,N,16433.828409,W,2,16,0.8,30.961,M,0.000,M,17.0,0436*65
gnss_cnav	2023-06-23T03:44:11.3242Z	$GPGGA,034411.00,7119.477491,N,16430.567933,W,2,18,0.6,30.903,M,0.000,M,247.0,0436*5D
gnss_cnav	2023-06-23T04:44:11.3248Z	$GPGGA,044411.00,7121.553236,N,16428.096464,W,2,18,0.7,30.842,M,0.000,M,7.0,0436*53
gnss_cnav	2023-06-23T05:44:12.3218Z	$GPGGA,054412.00,7124.023823,N,16425.838738,W,2,18,0.6,30.808,M,0.000,M,4.0,0436*5F
gnss_cnav	2023-06-23T06:44:15.3227Z	$GPGGA,064415.00,7124.776732,N,16425.787679,W,2,18,0.6,30.824,M,0.000,M,6.0,0436*50
gnss_cnav	2023-06-23T07:44:17.3241Z	$GPGGA,074417.00,7124.647242,N,16425.339773,W,2,18,0.6,30.848,M,0.000,M,4.0,0436*50
gnss_cnav	2023-06-23T08:44:19.3239Z	$GPGGA,084419.00,7126.298501,N,16422.359284,W,2,17,0.6,30.915,M,0.000,M,80.0,0436*63
gnss_cnav	2023-06-23T09:44:20.3242Z	$GPGGA,094420.00,7128.156920,N,16425.975283,W,2,18,0.6,30.889,M,0.000,M,21.0,0436*6C
gnss_cnav	2023-06-23T10:44:23.3221Z	$GPGGA,104423.00,7130.906656,N,16423.995598,W,2,16,0.7,30.924,M,0.000,M,4.0,0436*56
gnss_cnav	2023-06-23T11:44:26.3293Z	$GPGGA,114426.00,7132.355083,N,16417.952309,W,2,19,0.6,31.030,M,0.000,M,7.0,0436*50
gnss_cnav	2023-06-23T12:44:33.3234Z	$GPGGA,124433.00,7132.252909,N,16417.855007,W,2,20,0.6,30.954,M,0.000,M,4.0,0436*52
gnss_cnav	2023-06-23T13:44:36.3304Z	$GPGGA,134436.00,7132.027351,N,16418.968521,W,2,18,0.6,31.118,M,0.000,M,493.0,0436*50
gnss_cnav	2023-06-23T14:44:39.3251Z	$GPGGA,144439.00,7131.184750,N,16422.156609,W,2,17,0.6,31.129,M,0.000,M,151.0,0436*55
gnss_cnav	2023-06-23T15:44:40.3224Z	$GPGGA,154440.00,7128.752094,N,16427.985229,W,2,11,0.7,31.024,M,0.000,M,3.0,0403*5E
gnss_cnav	2023-06-23T16:44:42.3255Z	$GPGGA,164442.00,7125.444748,N,16429.759310,W,2,10,0.8,30.010,M,0.000,M,5.0,0403*54
gnss_cnav	2023-06-23T17:44:43.3222Z	$GPGGA,174443.00,7123.081494,N,16431.838493,W,2,11,0.9,32.178,M,0.000,M,2.0,0403*5A
gnss_cnav	2023-06-23T18:44:44.3289Z	$GPGGA,184444.00,7122.140358,N,16433.805538,W,2,20,0.6,30.796,M,0.000,M,240.0,0436*5F
gnss_cnav	2023-06-23T19:44:46.3292Z	$GPGGA,194446.00,7122.129740,N,16434.297617,W,2,18,0.6,30.983,M,0.000,M,117.0,0436*56
gnss_cnav	2023-06-23T20:44:48.3257Z	$GPGGA,204448.00,7120.808554,N,16434.790899,W,2,19,0.6,30.855,M,0.000,M,4.0,0436*5F
gnss_cnav	2023-06-23T21:44:49.3258Z	$GPGGA,214449.00,7118.286631,N,16435.982001,W,2,19,0.6,31.012,M,0.000,M,95.0,0436*6F
gnss_cnav	2023-06-23T22:44:51.3275Z	$GPGGA,224451.00,7116.756458,N,16441.377461,W,2,19,0.6,31.193,M,0.000,M,323.0,0436*59
gnss_cnav	2023-06-23T23:44:52.3274Z	$GPGGA,234452.00,7114.331668,N,16439.553931,W,2,19,0.6,31.070,M,0.000,M,4.0,0436*50
gnss_cnav	2023-06-24T00:44:53.3237Z	$GPGGA,004453.00,7112.647456,N,16438.159473,W,2,18,0.7,30.956,M,0.000,M,4.0,0436*55
gnss_cnav	2023-06-24T01:44:54.3317Z	$GPGGA,014454.00,7110.231831,N,16437.730355,W,2,16,0.7,31.149,M,0.000,M,175.0,0436*52
gnss_cnav	2023-06-24T02:44:55.3238Z	$GPGGA,024455.00,7107.600823,N,16443.029708,W,2,16,0.7,31.018,M,0.000,M,7.0,0436*52
gnss_cnav	2023-06-24T03:44:57.3250Z	$GPGGA,034457.00,7105.424961,N,16447.985237,W,2,18,0.6,31.005,M,0.000,M,4.0,0436*52
gnss_cnav	2023-06-24T04:44:57.3245Z	$GPGGA,044457.00,7103.215136,N,16450.335629,W,2,19,0.6,30.911,M,0.000,M,383.0,0436*51
gnss_cnav	2023-06-24T05:44:57.3341Z	$GPGGA,054457.00,7100.265428,N,16445.632570,W,2,17,0.7,31.219,M,0.000,M,724.0,0436*53
gnss_cnav	2023-06-24T06:44:59.3306Z	$GPGGA,064459.00,7054.952224,N,16445.599895,W,2,19,0.6,30.723,M,0.000,M,5.0,0436*59
gnss_cnav	2023-06-24T07:45:01.3276Z	$GPGGA,074501.00,7050.774137,N,16504.456436,W,2,18,0.6,30.887,M,0.000,M,482.0,0436*53
gnss_cnav	2023-06-24T08:45:04.3323Z	$GPGGA,084504.00,7046.556128,N,16504.626268,W,2,17,0.6,30.649,M,0.000,M,146.0,0436*54
gnss_cnav	2023-06-24T09:45:05.3285Z	$GPGGA,094505.00,7039.956962,N,16511.757144,W,2,19,0.6,30.679,M,0.000,M,11.0,0436*66
gnss_cnav	2023-06-24T10:45:05.3255Z	$GPGGA,104505.00,7037.924571,N,16522.379302,W,2,18,0.6,30.906,M,0.000,M,6.0,0436*53
gnss_cnav	2023-06-24T11:45:07.3241Z	$GPGGA,114507.00,7038.107550,N,16536.130723,W,2,19,0.6,30.983,M,0.000,M,4.0,0436*56
gnss_cnav	2023-06-24T12:45:11.3236Z	$GPGGA,124511.00,7037.128092,N,16545.379823,W,2,19,0.6,31.068,M,0.000,M,137.0,0436*53
gnss_cnav	2023-06-24T13:45:12.3278Z	$GPGGA,134512.00,7037.056123,N,16544.435629,W,2,16,0.6,31.343,M,0.000,M,418.0,0436*55
gnss_cnav	2023-06-24T14:45:15.3291Z	$GPGGA,144515.00,7035.142530,N,16537.261245,W,2,17,0.6,30.521,M,0.000,M,1077.0,0436*66
gnss_cnav	2023-06-24T15:45:17.3306Z	$GPGGA,154517.00,7031.239798,N,16523.913199,W,2,17,0.6,30.733,M,0.000,M,903.0,0436*5D
gnss_cnav	2023-06-24T16:45:20.3319Z	$GPGGA,164520.00,7027.415815,N,16453.262913,W,2,19,0.6,30.958,M,0.000,M,1047.0,0436*6B
gnss_cnav	2023-06-24T17:45:23.3285Z	$GPGGA,174523.00,7023.477452,N,16421.668582,W,2,17,0.7,30.833,M,0.000,M,4.0,0436*5C
gnss_cnav	2023-06-24T18:45:26.3331Z	$GPGGA,184526.00,7018.795880,N,16351.304997,W,2,19,0.6,30.582,M,0.000,M,433.0,0436*5D
gnss_cnav	2023-06-24T19:45:27.3213Z	$GPGGA,194527.00,7016.739205,N,16336.559606,W,2,17,0.7,30.829,M,0.000,M,4.0,0436*59
gnss_cnav	2023-06-24T20:45:27.3250Z	$GPGGA,204527.00,7021.463928,N,16333.576498,W,2,19,0.6,30.578,M,0.000,M,429.0,0436*5F
gnss_cnav	2023-06-24T21:45:28.3214Z	$GPGGA,214528.00,7024.527525,N,16332.252706,W,2,19,0.6,30.809,M,0.000,M,4.0,0436*50
gnss_cnav	2023-06-24T22:45:29.3299Z	$GPGGA,224529.00,7024.502959,N,16331.518526,W,2,20,0.6,30.853,M,0.000,M,5.0,0436*5C
gnss_cnav	2023-06-24T23:45:35.3245Z	$GPGGA,234535.00,7027.783867,N,16330.236099,W,2,17,0.6,30.741,M,0.000,M,6.0,0436*54
gnss_cnav	2023-06-25T00:45:35.3239Z	$GPGGA,004535.00,7032.504499,N,16327.493761,W,2,17,0.6,30.935,M,0.000,M,6.0,0436*53
gnss_cnav	2023-06-25T01:45:35.3252Z	$GPGGA,014535.00,7038.254942,N,16324.403914,W,2,17,0.6,30.621,M,0.000,M,306.0,0436*5E
gnss_cnav	2023-06-25T02:45:39.3253Z	$GPGGA,024539.00,7040.974695,N,16322.933156,W,2,17,0.6,30.652,M,0.000,M,5.0,0436*50
gnss_cnav	2023-06-25T03:45:43.3266Z	$GPGGA,034543.00,7048.103751,N,16316.933888,W,2,19,0.6,30.774,M,0.000,M,424.0,0436*54
gnss_cnav	2023-06-25T04:45:43.3221Z	$GPGGA,044543.00,7048.484443,N,16316.591042,W,2,19,0.6,30.794,M,0.000,M,4.0,0436*5B
gnss_cnav	2023-06-25T05:45:45.3224Z	$GPGGA,054545.00,7048.574658,N,16315.570680,W,2,17,0.7,30.764,M,0.000,M,6.0,0436*5C
gnss_cnav	2023-06-25T06:45:50.3277Z	$GPGGA,064550.00,7052.686799,N,16315.923372,W,2,19,0.6,30.797,M,0.000,M,216.0,0436*50
gnss_cnav	2023-06-25T07:45:51.3296Z	$GPGGA,074551.00,7055.879385,N,16313.967880,W,2,18,0.6,30.960,M,0.000,M,393.0,0436*5B
gnss_cnav	2023-06-25T08:45:54.3249Z	$GPGGA,084554.00,7057.713546,N,16305.966485,W,2,19,0.6,30.822,M,0.000,M,181.0,0436*51
gnss_cnav	2023-06-25T09:46:00.3255Z	$GPGGA,094600.00,7100.143855,N,16302.852002,W,2,20,0.6,30.837,M,0.000,M,267.0,0436*52
gnss_cnav	2023-06-25T10:46:00.3236Z	$GPGGA,104600.00,7102.175479,N,16307.709279,W,2,20,0.6,30.885,M,0.000,M,6.0,0436*59
gnss_cnav	2023-06-25T11:46:02.3235Z	$GPGGA,114602.00,7103.947574,N,16308.843704,W,2,19,0.6,31.069,M,0.000,M,4.0,0436*5C
gnss_cnav	2023-06-25T12:46:05.3289Z	$GPGGA,124605.00,7104.020242,N,16307.958576,W,2,18,0.6,31.052,M,0.000,M,6.0,0436*5D
gnss_cnav	2023-06-25T13:46:07.3217Z	$GPGGA,134607.00,7106.467431,N,16307.936009,W,2,15,0.8,31.110,M,0.000,M,4.0,0436*5A
gnss_cnav	2023-06-25T14:46:10.3239Z	$GPGGA,144610.00,7108.593440,N,16307.420740,W,2,18,0.6,31.231,M,0.000,M,786.0,0436*57
gnss_cnav	2023-06-25T15:46:10.3217Z	$GPGGA,154610.00,7110.539400,N,16306.763145,W,2,11,0.7,31.978,M,0.000,M,3.0,0403*5F
gnss_cnav	2023-06-25T16:46:13.3216Z	$GPGGA,164613.00,7111.226107,N,16304.513255,W,2,09,1.2,31.304,M,0.000,M,2.0,0403*5D
gnss_cnav	2023-06-25T17:46:17.3262Z	$GPGGA,174617.00,7111.146968,N,16303.889014,W,2,12,0.8,32.733,M,0.000,M,4.0,0403*56
gnss_cnav	2023-06-25T18:46:18.3220Z	$GPGGA,184618.00,7111.054751,N,16303.278456,W,2,12,0.7,30.857,M,0.000,M,5.0,0403*57
gnss_cnav	2023-06-25T19:46:19.3268Z	$GPGGA,194619.00,7110.963245,N,16302.659928,W,2,17,0.6,31.116,M,0.000,M,296.0,0436*5E
gnss_cnav	2023-06-25T20:46:22.3246Z	$GPGGA,204622.00,7110.849596,N,16302.048206,W,2,19,0.6,30.538,M,0.000,M,4.0,0436*53
gnss_cnav	2023-06-25T21:46:23.3232Z	$GPGGA,214623.00,7110.866373,N,16301.046203,W,2,17,0.6,31.068,M,0.000,M,4.0,0436*54
gnss_cnav	2023-06-25T22:46:25.3257Z	$GPGGA,224625.00,7111.557005,N,16259.079722,W,2,19,0.6,31.248,M,0.000,M,36.0,0436*64
gnss_cnav	2023-06-25T23:46:28.3263Z	$GPGGA,234628.00,7114.055388,N,16302.418968,W,2,18,0.6,31.252,M,0.000,M,129.0,0436*55
gnss_cnav	2023-06-26T00:46:29.3208Z	$GPGGA,004629.00,7115.671159,N,16301.634268,W,2,16,0.6,31.270,M,0.000,M,5.0,0436*5F
gnss_cnav	2023-06-26T01:46:36.3266Z	$GPGGA,014636.00,7117.003004,N,16301.114093,W,2,19,0.6,31.279,M,0.000,M,102.0,0436*5B
gnss_cnav	2023-06-26T02:46:37.3276Z	$GPGGA,024637.00,7118.974296,N,16259.507077,W,2,19,0.7,31.182,M,0.000,M,309.0,0436*59
gnss_cnav	2023-06-26T03:46:40.3238Z	$GPGGA,034640.00,7119.165749,N,16300.959978,W,2,19,0.6,31.275,M,0.000,M,6.0,0436*5C
gnss_cnav	2023-06-26T04:46:42.3206Z	$GPGGA,044642.00,7119.395225,N,16301.420243,W,2,17,0.7,31.146,M,0.000,M,38.0,0436*6B
gnss_cnav	2023-06-26T05:46:50.3269Z	$GPGGA,054650.00,7120.928320,N,16259.986754,W,2,17,0.7,31.281,M,0.000,M,551.0,0436*57
gnss_cnav	2023-06-26T06:46:51.3289Z	$GPGGA,064651.00,7120.492036,N,16301.067127,W,2,19,0.6,31.096,M,0.000,M,193.0,0436*54
gnss_cnav	2023-06-26T07:46:53.3271Z	$GPGGA,074653.00,7119.917516,N,16306.370982,W,2,21,0.6,31.009,M,0.000,M,9.0,0436*50
gnss_cnav	2023-06-26T08:46:56.3255Z	$GPGGA,084656.00,7119.923518,N,16314.028181,W,2,20,0.6,31.115,M,0.000,M,7.0,0436*56
gnss_cnav	2023-06-26T09:46:57.3231Z	$GPGGA,094657.00,7121.595043,N,16315.107478,W,2,18,0.6,31.024,M,0.000,M,4.0,0436*52
gnss_cnav	2023-06-26T10:47:00.3249Z	$GPGGA,104700.00,7121.704080,N,16323.863786,W,2,18,0.6,31.068,M,0.000,M,6.0,0436*5A
gnss_cnav	2023-06-26T11:47:01.3268Z	$GPGGA,114701.00,7121.664839,N,16325.721591,W,2,18,0.6,31.126,M,0.000,M,7.0,0436*56
gnss_cnav	2023-06-26T12:47:04.3248Z	$GPGGA,124704.00,7121.420631,N,16325.729307,W,2,18,0.6,31.129,M,0.000,M,6.0,0436*5B
gnss_cnav	2023-06-26T13:47:06.3273Z	$GPGGA,134706.00,7122.158785,N,16331.363905,W,2,16,0.6,31.182,M,0.000,M,472.0,0436*50
gnss_cnav	2023-06-26T14:47:08.3245Z	$GPGGA,144708.00,7122.477166,N,16338.844076,W,2,15,0.7,31.619,M,0.000,M,820.0,0436*5C
gnss_cnav	2023-06-26T15:47:09.3214Z	$GPGGA,154709.00,7123.038872,N,16345.726602,W,2,11,0.7,31.646,M,0.000,M,2.0,0403*5A
gnss_cnav	2023-06-26T16:47:11.3300Z	$GPGGA,164711.00,7123.166581,N,16350.137044,W,2,10,1.0,29.435,M,0.000,M,4.0,0403*53
gnss_cnav	2023-06-26T17:47:15.3218Z	$GPGGA,174715.00,7123.722628,N,16354.614827,W,2,12,0.8,31.159,M,0.000,M,2.0,0403*54
gnss_cnav	2023-06-26T18:47:21.3225Z	$GPGGA,184721.00,7123.595487,N,16355.197064,W,2,12,0.7,31.318,M,0.000,M,2.0,0403*5F
gnss_cnav	2023-06-26T19:47:22.3257Z	$GPGGA,194722.00,7123.554742,N,16355.685545,W,2,18,0.6,31.118,M,0.000,M,88.0,0436*65
gnss_cnav	2023-06-26T20:47:22.3242Z	$GPGGA,204722.00,7125.198779,N,16400.090367,W,2,19,0.6,31.183,M,0.000,M,4.0,0436*51
gnss_cnav	2023-06-26T21:47:23.3255Z	$GPGGA,214723.00,7126.449775,N,16404.631712,W,2,17,0.6,31.152,M,0.000,M,10.0,0436*6F
gnss_cnav	2023-06-26T22:47:26.3316Z	$GPGGA,224726.00,7128.209460,N,16407.235509,W,2,17,0.6,31.194,M,0.000,M,57.0,0436*60
gnss_cnav	2023-06-26T23:47:28.3290Z	$GPGGA,234728.00,7128.661711,N,16416.755415,W,2,18,0.6,30.971,M,0.000,M,234.0,0436*55
gnss_cnav	2023-06-27T00:47:28.3338Z	$GPGGA,004728.00,7131.409874,N,16418.763649,W,2,16,0.7,31.198,M,0.000,M,154.0,0436*58
gnss_cnav	2023-06-27T01:47:31.3259Z	$GPGGA,014731.00,7132.489057,N,16415.116243,W,2,18,0.6,31.187,M,0.000,M,8.0,0436*5D
gnss_cnav	2023-06-27T02:47:33.3243Z	$GPGGA,024733.00,7132.412615,N,16415.189063,W,2,19,0.6,31.138,M,0.000,M,4.0,0436*51
gnss_cnav	2023-06-27T03:47:33.3236Z	$GPGGA,034733.00,7133.139840,N,16412.254051,W,2,16,0.6,31.010,M,0.000,M,244.0,0436*54
gnss_cnav	2023-06-27T04:47:35.3243Z	$GPGGA,044735.00,7134.631658,N,16410.521679,W,2,17,0.6,31.072,M,0.000,M,7.0,0436*51
gnss_cnav	2023-06-27T05:47:35.3285Z	$GPGGA,054735.00,7138.304402,N,16407.500642,W,2,19,0.6,31.092,M,0.000,M,6.0,0436*5E
gnss_cnav	2023-06-27T06:47:37.3233Z	$GPGGA,064737.00,7139.926240,N,16402.123125,W,2,19,0.6,31.080,M,0.000,M,24.0,0436*61
gnss_cnav	2023-06-27T07:47:44.3261Z	$GPGGA,074744.00,7140.511738,N,16401.585160,W,2,20,0.6,31.136,M,0.000,M,5.0,0436*57
gnss_cnav	2023-06-27T08:47:46.3243Z	$GPGGA,084746.00,7140.300857,N,16402.361116,W,2,19,0.6,31.084,M,0.000,M,7.0,0436*54
gnss_cnav	2023-06-27T09:47:47.3241Z	$GPGGA,094747.00,7138.704656,N,16406.042479,W,2,17,0.6,31.028,M,0.000,M,14.0,0436*64
gnss_cnav	2023-06-27T10:47:52.3275Z	$GPGGA,104752.00,7136.619388,N,16413.614990,W,2,18,0.6,30.908,M,0.000,M,4.0,0436*52
gnss_cnav	2023-06-27T11:47:55.3277Z	$GPGGA,114755.00,7133.838673,N,16418.315756,W,2,18,0.7,31.073,M,0.000,M,6.0,0436*51
gnss_cnav	2023-06-27T12:47:59.3258Z	$GPGGA,124759.00,7130.514464,N,16426.130304,W,2,19,0.6,31.084,M,0.000,M,5.0,0436*5A
gnss_cnav	2023-06-27T13:48:02.3290Z	$GPGGA,134802.00,7125.824226,N,16424.164240,W,2,18,0.6,31.218,M,0.000,M,143.0,0436*57
gnss_cnav	2023-06-27T14:48:02.3255Z	$GPGGA,144802.00,7125.309150,N,16424.971877,W,2,17,0.6,31.545,M,0.000,M,989.0,0436*5A
gnss_cnav	2023-06-27T15:48:03.3245Z	$GPGGA,154803.00,7125.037189,N,16424.353404,W,2,10,0.8,32.352,M,0.000,M,2.0,0403*54
gnss_cnav	2023-06-27T16:48:03.3245Z	$GPGGA,164803.00,7124.612765,N,16423.926226,W,2,11,0.9,30.869,M,0.000,M,2.0,0403*5B
gnss_cnav	2023-06-27T17:48:03.3213Z	$GPGGA,174803.00,7124.315317,N,16423.750949,W,2,10,0.9,31.914,M,0.000,M,2.0,0403*5F
gnss_cnav	2023-06-27T18:48:04.3325Z	$GPGGA,184804.00,7123.761194,N,16425.093611,W,2,19,0.6,31.304,M,0.000,M,441.0,0436*5A
gnss_cnav	2023-06-27T19:48:07.3239Z	$GPGGA,194807.00,7121.666953,N,16430.365295,W,2,16,0.6,30.664,M,0.000,M,4.0,0436*51
gnss_cnav	2023-06-27T20:48:09.3281Z	$GPGGA,204809.00,7121.106117,N,16434.822490,W,2,17,0.6,31.078,M,0.000,M,5.0,0436*59
gnss_cnav	2023-06-27T21:48:16.3233Z	$GPGGA,214816.00,7119.083876,N,16436.049048,W,2,17,0.6,31.103,M,0.000,M,7.0,0436*56
gnss_cnav	2023-06-27T22:48:20.3226Z	$GPGGA,224820.00,7118.660779,N,16437.020087,W,2,17,0.6,31.116,M,0.000,M,6.0,0436*52
gnss_cnav	2023-06-27T23:48:21.3223Z	$GPGGA,234821.00,7118.835303,N,16430.910440,W,2,18,0.6,31.105,M,0.000,M,7.0,0436*5B
gnss_cnav	2023-06-28T00:48:24.3239Z	$GPGGA,004824.00,7117.312701,N,16422.779370,W,2,17,0.6,31.016,M,0.000,M,95.0,0436*69
gnss_cnav	2023-06-28T01:48:29.3257Z	$GPGGA,014829.00,7115.539018,N,16416.544550,W,2,19,0.6,31.034,M,0.000,M,5.0,0436*5F
gnss_cnav	2023-06-28T02:48:31.3264Z	$GPGGA,024831.00,7113.512081,N,16412.215657,W,2,19,0.6,31.028,M,0.000,M,7.0,0436*56
gnss_cnav	2023-06-28T03:48:35.3240Z	$GPGGA,034835.00,7112.013036,N,16406.444862,W,2,19,0.6,31.043,M,0.000,M,6.0,0436*59
gnss_cnav	2023-06-28T04:48:39.3235Z	$GPGGA,044839.00,7111.782492,N,16405.333738,W,2,18,0.6,30.993,M,0.000,M,5.0,0436*57
gnss_cnav	2023-06-28T05:48:40.3315Z	$GPGGA,054840.00,7111.514318,N,16404.526811,W,2,20,0.6,31.093,M,0.000,M,127.0,0436*55
gnss_cnav	2023-06-28T06:48:41.3279Z	$GPGGA,064841.00,7110.761949,N,16405.648679,W,2,18,0.6,31.043,M,0.000,M,7.0,0436*57
gnss_cnav	2023-06-28T07:48:43.3254Z	$GPGGA,074843.00,7111.270293,N,16413.858593,W,2,18,0.6,30.900,M,0.000,M,149.0,0436*57
gnss_cnav	2023-06-28T08:48:47.3257Z	$GPGGA,084847.00,7111.206530,N,16422.776543,W,2,18,0.6,31.089,M,0.000,M,259.0,0436*54
gnss_cnav	2023-06-28T09:48:48.3246Z	$GPGGA,094848.00,7110.259328,N,16427.471369,W,2,17,0.6,31.148,M,0.000,M,220.0,0436*5C
gnss_cnav	2023-06-28T10:48:50.3279Z	$GPGGA,104850.00,7110.655674,N,16436.613636,W,2,17,0.7,31.132,M,0.000,M,226.0,0436*5A
gnss_cnav	2023-06-28T11:48:51.3286Z	$GPGGA,114851.00,7111.160788,N,16445.806182,W,2,18,0.6,31.105,M,0.000,M,122.0,0436*53
gnss_cnav	2023-06-28T12:48:55.3266Z	$GPGGA,124855.00,7110.980272,N,16447.673169,W,2,19,0.6,31.240,M,0.000,M,6.0,0436*5C
gnss_cnav	2023-06-28T13:48:57.3287Z	$GPGGA,134857.00,7108.935003,N,16449.244311,W,2,17,0.6,31.356,M,0.000,M,433.0,0436*55
gnss_cnav	2023-06-28T14:48:58.3251Z	$GPGGA,144858.00,7107.109302,N,16451.323280,W,2,16,0.6,31.257,M,0.000,M,695.0,0436*58
gnss_cnav	2023-06-28T15:49:02.3256Z	$GPGGA,154902.00,7105.284323,N,16456.295628,W,2,18,0.6,31.142,M,0.000,M,509.0,0436*52
gnss_cnav	2023-06-28T16:49:04.3236Z	$GPGGA,164904.00,7103.816162,N,16500.267937,W,2,11,0.9,31.221,M,0.000,M,3.0,0403*50
gnss_cnav	2023-06-28T17:49:04.3262Z	$GPGGA,174904.00,7103.739864,N,16459.886664,W,2,17,0.6,31.335,M,0.000,M,5.0,0436*50
gnss_cnav	2023-06-28T18:49:10.3293Z	$GPGGA,184910.00,7103.731585,N,16459.729864,W,2,19,0.6,31.333,M,0.000,M,6.0,0436*5F
gnss_cnav	2023-06-28T19:49:10.3259Z	$GPGGA,194910.00,7103.719047,N,16459.366412,W,2,16,0.6,31.466,M,0.000,M,6.0,0436*55
gnss_cnav	2023-06-28T20:49:11.3237Z	$GPGGA,204911.00,7103.049655,N,16458.787334,W,2,17,0.6,31.147,M,0.000,M,7.0,0436*56
gnss_cnav	2023-06-28T21:49:12.3251Z	$GPGGA,214912.00,7100.001563,N,16458.672404,W,2,18,0.6,31.209,M,0.000,M,4.0,0436*57
gnss_cnav	2023-06-28T22:49:14.3247Z	$GPGGA,224914.00,7057.971862,N,16504.662509,W,2,18,0.6,31.014,M,0.000,M,5.0,0436*59
gnss_cnav	2023-06-28T23:49:16.3273Z	$GPGGA,234916.00,7057.132708,N,16511.406133,W,2,16,0.6,31.119,M,0.000,M,172.0,0436*5C
gnss_cnav	2023-06-29T00:49:19.3236Z	$GPGGA,004919.00,7056.120134,N,16512.089355,W,2,17,0.7,31.186,M,0.000,M,15.0,0436*6D
gnss_cnav	2023-06-29T01:49:21.3281Z	$GPGGA,014921.00,7053.804663,N,16511.431851,W,2,17,0.7,31.126,M,0.000,M,292.0,0436*54
gnss_cnav	2023-06-29T02:49:22.3250Z	$GPGGA,024922.00,7051.589688,N,16514.510347,W,2,20,0.6,31.101,M,0.000,M,4.0,0436*5D
gnss_cnav	2023-06-29T03:49:24.3258Z	$GPGGA,034924.00,7049.722889,N,16519.656063,W,2,19,0.6,31.148,M,0.000,M,130.0,0436*57
gnss_cnav	2023-06-29T04:49:27.3269Z	$GPGGA,044927.00,7049.152487,N,16522.973508,W,2,17,0.6,31.070,M,0.000,M,8.0,0436*56
gnss_cnav	2023-06-29T05:49:30.3319Z	$GPGGA,054930.00,7049.148433,N,16523.119486,W,2,17,0.6,31.052,M,0.000,M,986.0,0436*58
gnss_cnav	2023-06-29T06:49:31.3237Z	$GPGGA,064931.00,7046.630509,N,16524.933175,W,2,17,0.6,31.028,M,0.000,M,7.0,0436*56
gnss_cnav	2023-06-29T07:49:34.3249Z	$GPGGA,074934.00,7043.504812,N,16530.837715,W,2,18,0.6,31.206,M,0.000,M,5.0,0436*57
gnss_cnav	2023-06-29T08:49:38.3290Z	$GPGGA,084938.00,7042.017290,N,16531.379551,W,2,19,0.6,31.119,M,0.000,M,170.0,0436*5F
gnss_cnav	2023-06-29T09:49:38.3257Z	$GPGGA,094938.00,7041.938778,N,16532.046395,W,2,19,0.6,30.808,M,0.000,M,4.0,0436*52
gnss_cnav	2023-06-29T10:49:39.3260Z	$GPGGA,104939.00,7038.050626,N,16523.409740,W,2,16,0.7,31.004,M,0.000,M,5.0,0436*51
gnss_cnav	2023-06-29T11:49:39.3281Z	$GPGGA,114939.00,7034.336004,N,16529.391268,W,2,18,0.6,31.209,M,0.000,M,5.0,0436*5A
gnss_cnav	2023-06-29T12:49:41.3312Z	$GPGGA,124941.00,7028.878915,N,16535.844004,W,2,19,0.6,31.214,M,0.000,M,7.0,0436*5A
gnss_cnav	2023-06-29T13:49:43.3293Z	$GPGGA,134943.00,7022.577622,N,16514.278888,W,2,17,0.6,31.163,M,0.000,M,4.0,0436*5E
gnss_cnav	2023-06-29T14:49:45.3265Z	$GPGGA,144945.00,7020.939280,N,16444.374991,W,2,18,0.6,31.222,M,0.000,M,6.0,0436*5C
gnss_cnav	2023-06-29T15:49:45.3288Z	$GPGGA,154945.00,7018.965121,N,16416.113183,W,2,18,0.6,31.084,M,0.000,M,16.0,0436*67
gnss_cnav	2023-06-29T16:49:46.3306Z	$GPGGA,164946.00,7017.314546,N,16348.143747,W,2,17,0.6,30.960,M,0.000,M,7.0,0436*5B
gnss_cnav	2023-06-29T17:49:48.3215Z	$GPGGA,174948.00,7016.477936,N,16337.008164,W,2,12,0.7,32.049,M,0.000,M,2.0,0403*5A
gnss_cnav	2023-06-29T18:49:49.3277Z	$GPGGA,184949.00,7019.052497,N,16318.216372,W,2,17,0.6,30.703,M,0.000,M,5.0,0436*55
gnss_cnav	2023-06-29T19:49:49.3249Z	$GPGGA,194949.00,7022.267936,N,16250.260335,W,2,16,0.6,30.223,M,0.000,M,5.0,0436*57
gnss_cnav	2023-06-29T20:49:49.3279Z	$GPGGA,204949.00,7022.276395,N,16248.518957,W,2,20,0.6,30.419,M,0.000,M,60.0,0436*68
gnss_cnav	2023-06-29T21:49:50.3285Z	$GPGGA,214950.00,7023.317284,N,16309.471124,W,2,19,0.6,30.439,M,0.000,M,141.0,0436*5B
gnss_cnav	2023-06-29T22:49:54.3304Z	$GPGGA,224954.00,7024.574494,N,16332.401973,W,2,19,0.6,30.893,M,0.000,M,5.0,0436*57
gnss_cnav	2023-06-29T23:50:02.3263Z	$GPGGA,235002.00,7024.583449,N,16332.787193,W,2,16,0.7,30.846,M,0.000,M,94.0,0436*60
gnss_cnav	2023-06-30T00:50:04.3252Z	$GPGGA,005004.00,7027.002344,N,16331.599615,W,2,18,0.6,30.729,M,0.000,M,5.0,0436*54
gnss_cnav	2023-06-30T01:50:04.3311Z	$GPGGA,015004.00,7032.501382,N,16327.730650,W,2,19,0.6,30.844,M,0.000,M,291.0,0436*50
gnss_cnav	2023-06-30T02:50:05.3242Z	$GPGGA,025005.00,7039.992573,N,16324.067183,W,2,20,0.6,30.800,M,0.000,M,6.0,0436*5E
gnss_cnav	2023-06-30T03:50:08.3199Z	$GPGGA,035008.00,7040.398020,N,16322.994992,W,2,19,0.6,30.775,M,0.000,M,4.0,0436*51
gnss_cnav	2023-06-30T04:50:11.3237Z	$GPGGA,045011.00,7043.758727,N,16320.945122,W,2,17,0.6,30.868,M,0.000,M,7.0,0436*56
gnss_cnav	2023-06-30T05:50:11.3244Z	$GPGGA,055011.00,7048.177950,N,16318.679539,W,2,16,0.6,30.886,M,0.000,M,783.0,0436*56
gnss_cnav	2023-06-30T06:50:16.3247Z	$GPGGA,065016.00,7048.572740,N,16316.736491,W,2,16,0.6,30.661,M,0.000,M,17.0,0436*66
gnss_cnav	2023-06-30T07:50:17.3290Z	$GPGGA,075017.00,7046.013469,N,16258.638640,W,2,16,0.7,30.391,M,0.000,M,133.0,0436*54
gnss_cnav	2023-06-30T08:50:19.3337Z	$GPGGA,085019.00,7042.818009,N,16234.562100,W,2,19,0.6,30.320,M,0.000,M,91.0,0436*68
gnss_cnav	2023-06-30T09:50:23.3293Z	$GPGGA,095023.00,7042.344635,N,16205.974509,W,2,18,0.6,30.222,M,0.000,M,9.0,0436*5C
gnss_cnav	2023-06-30T10:50:23.3257Z	$GPGGA,105023.00,7042.184587,N,16136.314078,W,2,17,0.6,30.055,M,0.000,M,4.0,0436*5C
gnss_cnav	2023-06-30T11:50:53.3318Z	$GPGGA,115053.00,7042.674958,N,16107.373195,W,2,19,0.6,29.988,M,0.000,M,335.0,0436*53
gnss_cnav	2023-06-30T12:50:55.3279Z	$GPGGA,125055.00,7045.302159,N,16038.323847,W,2,20,0.6,30.043,M,0.000,M,201.0,0436*58
gnss_cnav	2023-06-30T13:50:55.3200Z	$GPGGA,135055.00,7046.781672,N,16027.683116,W,2,10,0.8,29.981,M,0.000,M,2.0,0403*52
gnss_cnav	2023-06-30T14:50:57.3224Z	$GPGGA,145057.00,7045.305127,N,16035.582421,W,2,10,0.8,30.872,M,0.000,M,3.0,0403*5F
gnss_cnav	2023-06-30T15:50:57.3222Z	$GPGGA,155057.00,7042.710281,N,16103.589761,W,2,10,0.8,31.570,M,0.000,M,3.0,0403*50
gnss_cnav	2023-06-30T16:51:01.3231Z	$GPGGA,165101.00,7041.199728,N,16131.271198,W,2,10,0.9,29.995,M,0.000,M,2.0,0403*5C
gnss_cnav	2023-06-30T17:51:02.3248Z	$GPGGA,175102.00,7041.900143,N,16200.070967,W,2,12,0.7,31.108,M,0.000,M,2.0,0403*5E
gnss_cnav	2023-06-30T18:51:06.3227Z	$GPGGA,185106.00,7046.343405,N,16158.786881,W,2,10,0.9,31.084,M,0.000,M,2.0,0403*58
gnss_cnav	2023-06-30T19:51:09.3231Z	$GPGGA,195109.00,7050.507776,N,16147.106270,W,2,18,0.6,30.437,M,0.000,M,5.0,0436*5F
gnss_cnav	2023-06-30T20:51:16.3241Z	$GPGGA,205116.00,7054.103451,N,16145.583751,W,2,20,0.6,30.498,M,0.000,M,333.0,0436*5C
gnss_cnav	2023-06-30T21:51:16.3226Z	$GPGGA,215116.00,7057.279387,N,16144.677564,W,2,18,0.7,30.540,M,0.000,M,7.0,0436*5B
gnss_cnav	2023-06-30T22:51:21.3239Z	$GPGGA,225121.00,7059.203598,N,16144.502533,W,2,20,0.6,30.785,M,0.000,M,37.0,0436*66
gnss_cnav	2023-06-30T23:51:24.3234Z	$GPGGA,235124.00,7101.426062,N,16144.605915,W,2,18,0.6,30.727,M,0.000,M,5.0,0436*51
gnss_cnav	2023-07-01T00:51:24.3257Z	$GPGGA,005124.00,7102.968273,N,16144.008607,W,2,17,0.7,30.789,M,0.000,M,400.0,0436*5A
gnss_cnav	2023-07-01T01:51:29.3255Z	$GPGGA,015129.00,7104.770960,N,16144.083262,W,2,18,0.7,30.708,M,0.000,M,361.0,0436*5C
gnss_cnav	2023-07-01T02:51:30.3247Z	$GPGGA,025130.00,7104.849843,N,16142.701151,W,2,19,0.6,30.776,M,0.000,M,6.0,0436*51
gnss_cnav	2023-07-01T03:51:35.3217Z	$GPGGA,035135.00,7104.739853,N,16141.553498,W,2,19,0.6,30.850,M,0.000,M,6.0,0436*51
gnss_cnav	2023-07-01T04:51:38.3255Z	$GPGGA,045138.00,7103.155312,N,16144.674668,W,2,16,0.7,31.001,M,0.000,M,4.0,0436*51
gnss_cnav	2023-07-01T05:51:39.3225Z	$GPGGA,055139.00,7101.036406,N,16145.701038,W,2,11,0.7,30.943,M,0.000,M,3.0,0403*5C
gnss_cnav	2023-07-01T06:51:40.3277Z	$GPGGA,065140.00,7100.943947,N,16150.704906,W,2,18,0.6,30.630,M,0.000,M,346.0,0436*51
gnss_cnav	2023-07-01T07:51:45.3243Z	$GPGGA,075145.00,7059.651230,N,16155.256910,W,2,16,0.6,30.811,M,0.000,M,6.0,0436*5B
gnss_cnav	2023-07-01T08:51:46.3292Z	$GPGGA,085146.00,7058.926991,N,16156.240046,W,2,19,0.6,30.899,M,0.000,M,248.0,0436*50
gnss_cnav	2023-07-01T09:51:50.3275Z	$GPGGA,095150.00,7058.108762,N,16201.879363,W,2,18,0.6,30.761,M,0.000,M,331.0,0436*53
gnss_cnav	2023-07-01T10:54:03.3293Z	$GPGGA,105403.00,7055.781217,N,16212.807615,W,2,19,0.6,30.841,M,0.000,M,289.0,0436*54
gnss_cnav	2023-07-01T11:54:06.3256Z	$GPGGA,115406.00,7055.484142,N,16233.375244,W,2,20,0.6,30.894,M,0.000,M,7.0,0436*5E
gnss_cnav	2023-07-01T12:54:09.3328Z	$GPGGA,125409.00,7054.992218,N,16244.197476,W,2,20,0.6,30.921,M,0.000,M,520.0,0436*53
gnss_cnav	2023-07-01T13:54:09.3293Z	$GPGGA,135409.00,7055.447139,N,16257.802468,W,2,16,0.6,30.960,M,0.000,M,311.0,0436*5A
gnss_cnav	2023-07-01T14:54:10.3225Z	$GPGGA,145410.00,7055.929589,N,16310.764874,W,2,10,0.8,33.436,M,0.000,M,4.0,0403*57
gnss_cnav	2023-07-01T15:54:12.3173Z	$GPGGA,155412.00,7056.995639,N,16311.243777,W,2,10,0.9,32.588,M,0.000,M,2.0,0403*57
gnss_cnav	2023-07-01T16:54:12.3216Z	$GPGGA,165412.00,7100.802084,N,16310.397247,W,2,11,0.9,30.416,M,0.000,M,2.0,0403*53
gnss_cnav	2023-07-01T17:54:14.3247Z	$GPGGA,175414.00,7104.068486,N,16308.974212,W,2,12,0.7,32.100,M,0.000,M,2.0,0403*51
gnss_cnav	2023-07-01T18:54:17.3293Z	$GPGGA,185417.00,7103.934647,N,16307.402474,W,2,17,0.6,31.453,M,0.000,M,338.0,0436*58
gnss_cnav	2023-07-01T19:54:22.3262Z	$GPGGA,195422.00,7104.016178,N,16305.251200,W,2,17,0.7,31.339,M,0.000,M,378.0,0436*53
gnss_cnav	2023-07-01T20:54:26.3286Z	$GPGGA,205426.00,7103.863557,N,16303.393578,W,2,20,0.6,31.213,M,0.000,M,383.0,0436*50
gnss_cnav	2023-07-01T21:54:34.3292Z	$GPGGA,215434.00,7103.754891,N,16302.210135,W,2,19,0.6,31.273,M,0.000,M,120.0,0436*5F
gnss_cnav	2023-07-01T22:54:38.3250Z	$GPGGA,225438.00,7105.632725,N,16301.533937,W,2,18,0.6,31.432,M,0.000,M,125.0,0436*5F
gnss_cnav	2023-07-01T23:54:40.3226Z	$GPGGA,235440.00,7108.718771,N,16302.370094,W,2,17,0.6,31.304,M,0.000,M,6.0,0436*5B
gnss_cnav	2023-07-02T00:54:42.3265Z	$GPGGA,005442.00,7112.065780,N,16304.535615,W,2,16,0.7,31.168,M,0.000,M,4.0,0436*54
gnss_cnav	2023-07-02T01:54:46.3253Z	$GPGGA,015446.00,7112.841735,N,16301.582716,W,2,15,0.8,31.104,M,0.000,M,132.0,0436*58
gnss_cnav	2023-07-02T02:54:48.3289Z	$GPGGA,025448.00,7113.585526,N,16255.814168,W,2,19,0.6,31.199,M,0.000,M,29.0,0436*61
gnss_cnav	2023-07-02T03:54:49.3313Z	$GPGGA,035449.00,7113.546415,N,16255.039016,W,2,17,0.6,31.140,M,0.000,M,171.0,0436*56
gnss_cnav	2023-07-02T04:54:50.3205Z	$GPGGA,045450.00,7114.134685,N,16254.738605,W,2,10,1.2,32.193,M,0.000,M,2.0,0403*5B
gnss_cnav	2023-07-02T05:54:50.3262Z	$GPGGA,055450.00,7117.439095,N,16256.452181,W,2,18,0.6,31.225,M,0.000,M,6.0,0436*52
gnss_cnav	2023-07-02T06:54:55.3234Z	$GPGGA,065455.00,7119.512606,N,16301.544980,W,2,17,0.6,31.424,M,0.000,M,6.0,0436*5A
gnss_cnav	2023-07-02T07:54:55.3235Z	$GPGGA,075455.00,7119.581767,N,16300.373683,W,2,17,0.6,31.265,M,0.000,M,6.0,0436*5B
gnss_cnav	2023-07-02T08:54:57.3239Z	$GPGGA,085457.00,7120.501947,N,16257.234794,W,2,19,0.6,31.272,M,0.000,M,4.0,0436*54
gnss_cnav	2023-07-02T09:55:00.3246Z	$GPGGA,095500.00,7121.471651,N,16255.610031,W,2,18,0.6,31.365,M,0.000,M,6.0,0436*55
gnss_cnav	2023-07-02T10:55:04.3286Z	$GPGGA,105504.00,7122.012904,N,16257.235878,W,2,20,0.6,31.453,M,0.000,M,5.0,0436*5A
gnss_cnav	2023-07-02T11:55:06.3243Z	$GPGGA,115506.00,7123.410966,N,16255.806307,W,2,19,0.6,31.326,M,0.000,M,12.0,0436*68
gnss_cnav	2023-07-02T12:55:08.3274Z	$GPGGA,125508.00,7125.088442,N,16252.984423,W,2,18,0.6,31.371,M,0.000,M,4.0,0436*54
gnss_cnav	2023-07-02T13:55:09.3262Z	$GPGGA,135509.00,7127.121635,N,16253.332893,W,2,15,0.7,31.775,M,0.000,M,890.0,0436*5E
gnss_cnav	2023-07-02T14:55:15.3219Z	$GPGGA,145515.00,7127.891338,N,16254.124657,W,2,10,0.8,32.404,M,0.000,M,2.0,0403*53
gnss_cnav	2023-07-02T15:55:17.3241Z	$GPGGA,155517.00,7128.304456,N,16255.632018,W,2,09,0.9,31.747,M,0.000,M,3.0,0403*54
gnss_cnav	2023-07-02T16:55:18.3248Z	$GPGGA,165518.00,7129.499212,N,16303.480463,W,2,11,0.9,30.182,M,0.000,M,4.0,0403*5D
gnss_cnav	2023-07-02T17:55:19.3232Z	$GPGGA,175519.00,7129.489786,N,16311.029502,W,2,12,0.7,33.162,M,0.000,M,5.0,0403*57
gnss_cnav	2023-07-02T18:55:22.3255Z	$GPGGA,185522.00,7131.016758,N,16311.843963,W,2,16,0.7,30.998,M,0.000,M,4.0,0436*5A
gnss_cnav	2023-07-02T19:55:23.3293Z	$GPGGA,195523.00,7131.957318,N,16315.067090,W,2,17,0.7,31.284,M,0.000,M,4.0,0436*5F
gnss_cnav	2023-07-02T20:55:27.3264Z	$GPGGA,205527.00,7133.205116,N,16316.732654,W,2,20,0.6,31.405,M,0.000,M,8.0,0436*5F
gnss_cnav	2023-07-02T21:55:28.3288Z	$GPGGA,215528.00,7132.977925,N,16322.623806,W,2,20,0.6,31.419,M,0.000,M,4.0,0436*58
gnss_cnav	2023-07-02T22:55:30.3249Z	$GPGGA,225530.00,7133.517801,N,16327.279565,W,2,20,0.6,31.412,M,0.000,M,6.0,0436*51
gnss_cnav	2023-07-02T23:55:31.3257Z	$GPGGA,235531.00,7135.172705,N,16331.974090,W,2,17,0.6,31.194,M,0.000,M,7.0,0436*5B
gnss_cnav	2023-07-03T00:55:31.3276Z	$GPGGA,005531.00,7135.211708,N,16337.471560,W,2,18,0.6,31.176,M,0.000,M,287.0,0436*5C
gnss_cnav	2023-07-03T01:55:34.3235Z	$GPGGA,015534.00,7135.126588,N,16337.875801,W,2,15,0.8,31.245,M,0.000,M,185.0,0436*56
gnss_cnav	2023-07-03T02:55:35.3281Z	$GPGGA,025535.00,7135.161677,N,16338.046488,W,2,20,0.6,31.187,M,0.000,M,6.0,0436*51
gnss_cnav	2023-07-03T03:55:39.3280Z	$GPGGA,035539.00,7135.153357,N,16338.036522,W,2,19,0.6,31.051,M,0.000,M,695.0,0436*50
gnss_cnav	2023-07-03T04:55:39.3323Z	$GPGGA,045539.00,7134.796269,N,16339.606657,W,2,18,0.6,30.728,M,0.000,M,170.0,0436*55
gnss_cnav	2023-07-03T05:55:40.3260Z	$GPGGA,055540.00,7136.328897,N,16345.162266,W,2,18,0.6,31.234,M,0.000,M,11.0,0436*65
gnss_cnav	2023-07-03T06:55:44.3266Z	$GPGGA,065544.00,7136.952111,N,16351.902599,W,2,17,0.6,31.224,M,0.000,M,65.0,0436*63
gnss_cnav	2023-07-03T07:55:45.3206Z	$GPGGA,075545.00,7138.002575,N,16356.781360,W,2,17,0.6,31.262,M,0.000,M,6.0,0436*52
gnss_cnav	2023-07-03T08:55:49.3256Z	$GPGGA,085549.00,7139.633954,N,16401.743576,W,2,18,0.6,31.147,M,0.000,M,5.0,0436*59
gnss_cnav	2023-07-03T09:55:53.3270Z	$GPGGA,095553.00,7139.192371,N,16402.847116,W,2,18,0.6,31.109,M,0.000,M,4.0,0436*53
gnss_cnav	2023-07-03T10:55:53.3270Z	$GPGGA,105553.00,7136.621863,N,16405.942328,W,2,18,0.6,31.149,M,0.000,M,4.0,0436*5B
gnss_cnav	2023-07-03T11:55:53.3275Z	$GPGGA,115553.00,7133.127604,N,16405.474004,W,2,17,0.6,31.101,M,0.000,M,294.0,0436*5C
gnss_cnav	2023-07-03T12:55:54.3277Z	$GPGGA,125554.00,7132.750478,N,16408.011209,W,2,18,0.6,30.987,M,0.000,M,25.0,0436*63
gnss_cnav	2023-07-03T13:55:56.3277Z	$GPGGA,135556.00,7132.875132,N,16410.793928,W,2,16,0.7,30.956,M,0.000,M,673.0,0436*59
gnss_cnav	2023-07-03T14:55:58.3244Z	$GPGGA,145558.00,7132.819833,N,16411.196862,W,2,10,0.8,31.543,M,0.000,M,2.0,0403*59
gnss_cnav	2023-07-03T15:55:58.3200Z	$GPGGA,155558.00,7132.795480,N,16408.652351,W,2,10,0.8,31.293,M,0.000,M,2.0,0403*51
gnss_cnav	2023-07-03T16:55:59.3217Z	$GPGGA,165559.00,7130.967015,N,16406.540319,W,2,11,0.9,31.326,M,0.000,M,3.0,0403*56
gnss_cnav	2023-07-03T17:56:02.3248Z	$GPGGA,175602.00,7129.776684,N,16411.077382,W,2,12,0.7,32.648,M,0.000,M,2.0,0403*55
gnss_cnav	2023-07-03T18:56:03.3299Z	$GPGGA,185603.00,7128.612370,N,16417.320550,W,2,17,0.6,30.923,M,0.000,M,1099.0,0436*68
gnss_cnav	2023-07-03T19:56:07.3287Z	$GPGGA,195607.00,7126.197835,N,16420.570026,W,2,19,0.6,31.112,M,0.000,M,374.0,0436*54
gnss_cnav	2023-07-03T20:56:10.3259Z	$GPGGA,205610.00,7124.862771,N,16424.537005,W,2,20,0.6,31.282,M,0.000,M,6.0,0436*56
gnss_cnav	2023-07-03T21:56:10.3235Z	$GPGGA,215610.00,7124.385555,N,16424.244013,W,2,18,0.6,31.230,M,0.000,M,6.0,0436*57
gnss_cnav	2023-07-03T22:56:12.3261Z	$GPGGA,225612.00,7123.941002,N,16424.152199,W,2,18,0.6,31.254,M,0.000,M,4.0,0436*53
gnss_cnav	2023-07-03T23:56:14.3264Z	$GPGGA,235614.00,7123.619212,N,16423.781834,W,2,18,0.6,31.162,M,0.000,M,50.0,0436*63
gnss_cnav	2023-07-04T00:56:19.3269Z	$GPGGA,005619.00,7121.942557,N,16427.304018,W,2,18,0.6,31.187,M,0.000,M,5.0,0436*5A
gnss_cnav	2023-07-04T01:56:21.3244Z	$GPGGA,015621.00,7118.992409,N,16432.073632,W,2,16,0.8,31.078,M,0.000,M,7.0,0436*57
gnss_cnav	2023-07-04T02:56:25.3242Z	$GPGGA,025625.00,7117.930021,N,16436.395946,W,2,20,0.6,31.186,M,0.000,M,136.0,0436*52
gnss_cnav	2023-07-04T03:56:26.3286Z	$GPGGA,035626.00,7115.747042,N,16438.746332,W,2,18,0.7,31.076,M,0.000,M,7.0,0436*53
gnss_cnav	2023-07-04T04:56:28.3246Z	$GPGGA,045628.00,7112.999418,N,16441.746507,W,2,19,0.6,31.102,M,0.000,M,9.0,0436*59
gnss_cnav	2023-07-04T05:56:31.3286Z	$GPGGA,055631.00,7111.389181,N,16445.801153,W,2,20,0.6,31.160,M,0.000,M,212.0,0436*56
gnss_cnav	2023-07-04T06:56:34.3300Z	$GPGGA,065634.00,7111.289838,N,16444.163016,W,2,19,0.6,31.216,M,0.000,M,115.0,0436*5A
gnss_cnav	2023-07-04T07:56:35.3256Z	$GPGGA,075635.00,7109.715901,N,16447.643383,W,2,18,0.6,31.233,M,0.000,M,101.0,0436*52
gnss_cnav	2023-07-04T08:56:37.3250Z	$GPGGA,085637.00,7107.395013,N,16452.512436,W,2,18,0.6,31.080,M,0.000,M,8.0,0436*5F
